[
  {
    "id": "F001",
    "company": "შპს გოლდენბლუ",
    "name": "გიორგი",
    "surname": "ქავთარაძე",
    "nameEn": "Giorgi",
    "surnameEn": "Kavtaradze",
    "portfolio": "SME",
    "riskStatus": "controlled",
    "crop": "ნუში",
    "area": 50.0,
    "loanAmount": 550000,
    "region": "Kakheti",
    "municipality": "Sighnaghi",
    "lat": 41.6197,
    "lng": 45.9211
  },
  {
    "id": "F002",
    "company": "შპს  ბლუბერთი",
    "name": "მაია",
    "surname": "ბერიძე",
    "nameEn": "Maia",
    "surnameEn": "Beridze",
    "portfolio": "SME",
    "riskStatus": "controlled",
    "crop": "მოცვი",
    "area": 12.0,
    "loanAmount": 500000,
    "region": "Samegrelo",
    "municipality": "Martvili",
    "lat": 42.4167,
    "lng": 42.3833
  },
  {
    "id": "F003",
    "company": "შპს კოსმიქი",
    "name": "დავით",
    "surname": "შავაძე",
    "nameEn": "Davit",
    "surnameEn": "Shavadze",
    "portfolio": "SME",
    "riskStatus": "controlled",
    "crop": "ვენახი",
    "area": 30.0,
    "loanAmount": 1350000,
    "region": "Kakheti",
    "municipality": "Gurjaani",
    "lat": 41.9183,
    "lng": 45.4736
  },
  {
    "id": "F004",
    "company": "შპს ვინო2",
    "name": "ნანა",
    "surname": "გოგუაძე",
    "nameEn": "Nana",
    "surnameEn": "Goguadze",
    "portfolio": "SME",
    "riskStatus": "controlled",
    "crop": "ვენახი",
    "area": 18.0,
    "loanAmount": 500000,
    "region": "Racha-Lechkhumi",
    "municipality": "Ambrolauri",
    "lat": 42.5189,
    "lng": 43.1528
  },
  {
    "id": "F005",
    "company": "შპს ალმონი",
    "name": "მერაბ",
    "surname": "ხვედელიძე",
    "nameEn": "Merab",
    "surnameEn": "Khvedelidze",
    "portfolio": "SME",
    "riskStatus": "controlled",
    "crop": "ნუში",
    "area": 20.0,
    "loanAmount": 150000,
    "region": "Kvemo Kartli",
    "municipality": "Marneuli",
    "lat": 41.4769,
    "lng": 44.8089
  },
  {
    "id": "F006",
    "company": "შპს პერენნია",
    "name": "ნიკოლოზ",
    "surname": "ბაქრაძე",
    "nameEn": "Nikoloz",
    "surnameEn": "Bakradze",
    "portfolio": "SME",
    "riskStatus": "controlled",
    "crop": "ვენახი",
    "area": 20.0,
    "loanAmount": 800000,
    "region": "Kakheti",
    "municipality": "Telavi",
    "lat": 41.7453,
    "lng": 45.7989
  },
  {
    "id": "F007",
    "company": "შპს ლიფერა",
    "name": "თემურ",
    "surname": "ბერია",
    "nameEn": "Temur",
    "surnameEn": "Beria",
    "portfolio": "SME",
    "riskStatus": "controlled",
    "crop": "ნუში",
    "area": 60.0,
    "loanAmount": 750000,
    "region": "Shida Kartli",
    "municipality": "Gori",
    "lat": 41.9842,
    "lng": 44.1089
  },
  {
    "id": "F008",
    "company": "შპს ხილკო",
    "name": "ეკა",
    "surname": "კურტანიძე",
    "nameEn": "Eka",
    "surnameEn": "Kurtanidze",
    "portfolio": "SME",
    "riskStatus": "controlled",
    "crop": "მოცვი",
    "area": 18.0,
    "loanAmount": 700000,
    "region": "Samegrelo",
    "municipality": "Zugdidi",
    "lat": 42.5088,
    "lng": 41.8709
  },
  {
    "id": "F009",
    "company": "შპს თ&ნ",
    "name": "ლევან",
    "surname": "ქარჩილაძე",
    "nameEn": "Levan",
    "surnameEn": "Karchiladze",
    "portfolio": "SME",
    "riskStatus": "controlled",
    "crop": "მოცვი",
    "area": 26.0,
    "loanAmount": 1150000,
    "region": "Guria",
    "municipality": "Ozurgeti",
    "lat": 41.9242,
    "lng": 42.0053
  },
  {
    "id": "F010",
    "company": "შპს ტერალაიფი",
    "name": "მზია",
    "surname": "ფოფხაძე",
    "nameEn": "Mzia",
    "surnameEn": "Popkhadze",
    "portfolio": "SME",
    "riskStatus": "controlled",
    "crop": "ვენახი",
    "area": 12.0,
    "loanAmount": 250000,
    "region": "Samtskhe-Javakheti",
    "municipality": "Akhaltsikhe",
    "lat": 41.6392,
    "lng": 42.9828
  },
  {
    "id": "F011",
    "company": "შპს რუთსი",
    "name": "ანზორ",
    "surname": "მახარაძე",
    "nameEn": "Anzor",
    "surnameEn": "Makharadze",
    "portfolio": "SME",
    "riskStatus": "controlled",
    "crop": "მოცვი",
    "area": 13.0,
    "loanAmount": 500000,
    "region": "Samegrelo",
    "municipality": "Senaki",
    "lat": 42.2681,
    "lng": 42.0653
  },
  {
    "id": "F012",
    "company": "შპს ვიტისორი",
    "name": "რუსუდან",
    "surname": "ალექსიძე",
    "nameEn": "Rusudan",
    "surnameEn": "Aleksidze",
    "portfolio": "SME",
    "riskStatus": "controlled",
    "crop": "მოცვი",
    "area": 28.0,
    "loanAmount": 1350000,
    "region": "Guria",
    "municipality": "Ozurgeti",
    "lat": 42.0833,
    "lng": 42.0833
  },
  {
    "id": "F013",
    "company": "შპს ქართული",
    "name": "ზურაბ",
    "surname": "ჭელიძე",
    "nameEn": "Zurab",
    "surnameEn": "Chelidze",
    "portfolio": "SME",
    "riskStatus": "controlled",
    "crop": "ნუში",
    "area": 150.0,
    "loanAmount": 1500000,
    "region": "Kakheti",
    "municipality": "Gurjaani",
    "lat": 41.9547,
    "lng": 45.8156
  },
  {
    "id": "F014",
    "company": "შპს ნატრიქსი",
    "name": "გოჩა",
    "surname": "მჟავანაძე",
    "nameEn": "Gocha",
    "surnameEn": "Mzhavanadze",
    "portfolio": "SME",
    "riskStatus": "controlled",
    "crop": "ნუში",
    "area": 120.0,
    "loanAmount": 1000000,
    "region": "Kakheti",
    "municipality": "Sighnaghi",
    "lat": 41.7333,
    "lng": 45.3333
  },
  {
    "id": "F015",
    "company": "შპს გიკო",
    "name": "თიკა",
    "surname": "ხატიაშვილი",
    "nameEn": "Tika",
    "surnameEn": "Khatiashvili",
    "portfolio": "SME",
    "riskStatus": "controlled",
    "crop": "მოცვი",
    "area": 30.0,
    "loanAmount": 800000,
    "region": "Guria",
    "municipality": "Lanchkhuti",
    "lat": 41.9833,
    "lng": 42.1667
  },
  {
    "id": "F016",
    "company": "შპს ორჩადია",
    "name": "არჩილ",
    "surname": "გობაძე",
    "nameEn": "Archil",
    "surnameEn": "Gobadze",
    "portfolio": "SME",
    "riskStatus": "controlled",
    "crop": "მოცვი",
    "area": 31.0,
    "loanAmount": 750000,
    "region": "Samegrelo",
    "municipality": "Poti",
    "lat": 42.1475,
    "lng": 41.6719
  },
  {
    "id": "F017",
    "company": "შპს ორჩადია-2",
    "name": "ლელა",
    "surname": "ბერძენიშვილი",
    "nameEn": "Lela",
    "surnameEn": "Berdzenishvili",
    "portfolio": "SME",
    "riskStatus": "controlled",
    "crop": "ნუში",
    "area": 62.0,
    "loanAmount": 700000,
    "region": "Kakheti",
    "municipality": "Telavi",
    "lat": 42.0333,
    "lng": 45.2
  },
  {
    "id": "F018",
    "company": "შპს გზა",
    "name": "ვაჟა",
    "surname": "ბათიაშვილი",
    "nameEn": "Vazha",
    "surnameEn": "Batiashvili",
    "portfolio": "SME",
    "riskStatus": "controlled",
    "crop": "ვენახი",
    "area": 30.0,
    "loanAmount": 1000000,
    "region": "Racha-Lechkhumi",
    "municipality": "Oni",
    "lat": 42.5833,
    "lng": 43.4333
  },
  {
    "id": "F019",
    "company": "შპს ვინიფერა",
    "name": "ნოდარ",
    "surname": "ჩხეიძე",
    "nameEn": "Nodar",
    "surnameEn": "Chkheidze",
    "portfolio": "SME",
    "riskStatus": "controlled",
    "crop": "ვენახი",
    "area": 13.0,
    "loanAmount": 400000,
    "region": "Guria",
    "municipality": "Chokhatauri",
    "lat": 41.9242,
    "lng": 42.0053
  },
  {
    "id": "F020",
    "company": "შპს ნაყოფთა ბაღი",
    "name": "თინათინ",
    "surname": "სხილაძე",
    "nameEn": "Tinatin",
    "surnameEn": "Skhiladze",
    "portfolio": "SME",
    "riskStatus": "controlled",
    "crop": "ნუში",
    "area": 51.0,
    "loanAmount": 550000,
    "region": "Kvemo Kartli",
    "municipality": "Tetritskaro",
    "lat": 41.4597,
    "lng": 45.0936
  },
  {
    "id": "F021",
    "company": "შპს ფესვები",
    "name": "ილია",
    "surname": "მამალაძე",
    "nameEn": "Ilia",
    "surnameEn": "Mamaladze",
    "portfolio": "SME",
    "riskStatus": "controlled",
    "crop": "მოცვი",
    "area": 34.0,
    "loanAmount": 1600000,
    "region": "Samegrelo",
    "municipality": "Zugdidi",
    "lat": 42.3167,
    "lng": 41.9
  },
  {
    "id": "F022",
    "company": "შპს ალმონიანი",
    "name": "ელენე",
    "surname": "ჩიქობავა",
    "nameEn": "Elene",
    "surnameEn": "Chikobava",
    "portfolio": "CB",
    "riskStatus": "controlled",
    "crop": "მოცვი",
    "area": 42.0,
    "loanAmount": 2500000,
    "region": "Imereti",
    "municipality": "წყატუბო",
    "lat": 42.2679,
    "lng": 42.6993
  },
  {
    "id": "F023",
    "company": "შპს დროის ბაღი",
    "name": "დავით",
    "surname": "ხურციძე",
    "nameEn": "Davit",
    "surnameEn": "Khurtsidze",
    "portfolio": "CB",
    "riskStatus": "controlled",
    "crop": "ვენახი",
    "area": 52.0,
    "loanAmount": 3000000,
    "region": "Kakheti",
    "municipality": "Kvareli",
    "lat": 41.6197,
    "lng": 45.9211
  },
  {
    "id": "F024",
    "company": "შპს სილვერი",
    "name": "ნათია",
    "surname": "გობრონიძე",
    "nameEn": "Natia",
    "surnameEn": "Gobronidze",
    "portfolio": "CB",
    "riskStatus": "controlled",
    "crop": "ნუში",
    "area": 200.0,
    "loanAmount": 2500000,
    "region": "Shida Kartli",
    "municipality": "Kareli",
    "lat": 42.0333,
    "lng": 43.85
  },
  {
    "id": "F025",
    "company": "შპს ქართული ვაზი",
    "name": "ზვიადი",
    "surname": "კიკნაძე",
    "nameEn": "ზვიადი",
    "surnameEn": "Kiknadze",
    "portfolio": "CB",
    "riskStatus": "controlled",
    "crop": "მოცვი",
    "area": 55.0,
    "loanAmount": 4000000,
    "region": "Samegrelo",
    "municipality": "Senaki",
    "lat": 42.6167,
    "lng": 42.0833
  },
  {
    "id": "F026",
    "company": "შპს საგვარეულო",
    "name": "ელი",
    "surname": "ადამია",
    "nameEn": "Eli",
    "surnameEn": "Adamia",
    "portfolio": "CB",
    "riskStatus": "controlled",
    "crop": "მოცვი",
    "area": 53.0,
    "loanAmount": 3500000,
    "region": "Guria",
    "municipality": "Ozurgeti",
    "lat": 42.0833,
    "lng": 42.0833
  },
  {
    "id": "F027",
    "company": "შპს მეგობრობა",
    "name": "მარიამ",
    "surname": "ცუცქირიძე",
    "nameEn": "Mariam",
    "surnameEn": "Tsutskir idze",
    "portfolio": "CB",
    "riskStatus": "controlled",
    "crop": "ვენახი",
    "area": 44.0,
    "loanAmount": 2000000,
    "region": "Kakheti",
    "municipality": "Telavi",
    "lat": 41.9183,
    "lng": 45.4736
  },
  {
    "id": "F028",
    "company": "შპს გემრიელი ფესვები",
    "name": "გიორგი",
    "surname": "მიქელაძე",
    "nameEn": "Giorgi",
    "surnameEn": "Mikeladze",
    "portfolio": "CB",
    "riskStatus": "controlled",
    "crop": "ნუში",
    "area": 181.0,
    "loanAmount": 1800000,
    "region": "Kakheti",
    "municipality": "Sagarejo",
    "lat": 41.7453,
    "lng": 45.7989
  },
  {
    "id": "F029",
    "company": "შპს ჯორჯიკა",
    "name": "სალომე",
    "surname": "ტაბიძე",
    "nameEn": "Salome",
    "surnameEn": "Tabidze",
    "portfolio": "CB",
    "riskStatus": "controlled",
    "crop": "მოცვი",
    "area": 55.0,
    "loanAmount": 4000000,
    "region": "Imereti",
    "municipality": "Tskaltubo",
    "lat": 42.3394,
    "lng": 42.5953
  },
  {
    "id": "F030",
    "company": "შპს მრავალწლიანობა",
    "name": "შოთა",
    "surname": "ბერიკაშვილი",
    "nameEn": "Shota",
    "surnameEn": "Berikashvili",
    "portfolio": "CB",
    "riskStatus": "controlled",
    "crop": "მოცვი",
    "area": 48.0,
    "loanAmount": 2700000,
    "region": "Samegrelo",
    "municipality": "Tsalenjikha",
    "lat": 42.4167,
    "lng": 42.3833
  },
  {
    "id": "F031",
    "company": "შპს. ბერის გარდენი",
    "name": "ლია",
    "surname": "მამიკონიშვილი",
    "nameEn": "Lia",
    "surnameEn": "Mamikonishvili",
    "portfolio": "CB",
    "riskStatus": "controlled",
    "crop": "ნუში",
    "area": 255.0,
    "loanAmount": 3600000,
    "region": "Kakheti",
    "municipality": "Gurjaani",
    "lat": 41.9547,
    "lng": 45.8156
  },
  {
    "id": "F032",
    "company": "შპს. დროის ბაღი",
    "name": "ირაკლი",
    "surname": "ზედელაშვილი",
    "nameEn": "Irakli",
    "surnameEn": "Zedelashvili",
    "portfolio": "CB",
    "riskStatus": "controlled",
    "crop": "ნუში",
    "area": 186.0,
    "loanAmount": 2500000,
    "region": "Shida Kartli",
    "municipality": "Gori",
    "lat": 41.9167,
    "lng": 44.4333
  },
  {
    "id": "F033",
    "company": "შპს ფრუტია",
    "name": "ელენე",
    "surname": "ბოლქვაძე",
    "nameEn": "Elene",
    "surnameEn": "Bolkvadze",
    "portfolio": "CB",
    "riskStatus": "controlled",
    "crop": "მოცვი",
    "area": 45.0,
    "loanAmount": 3000000,
    "region": "Guria",
    "municipality": "Lanchkhuti",
    "lat": 41.9833,
    "lng": 42.1667
  },
  {
    "id": "F034",
    "company": "შპს ბერინესტი",
    "name": "კახა",
    "surname": "თევზაძე",
    "nameEn": "Kakha",
    "surnameEn": "Tevzadze",
    "portfolio": "CB",
    "riskStatus": "controlled",
    "crop": "მოცვი",
    "area": 40.0,
    "loanAmount": 1500000,
    "region": "Samegrelo",
    "municipality": "Zugdidi",
    "lat": 42.5088,
    "lng": 41.8709
  },
  {
    "id": "F035",
    "company": "შპს. სვიანი",
    "name": "ნინო",
    "surname": "გიგუნაშვილი",
    "nameEn": "Nino",
    "surnameEn": "Gigunashvili",
    "portfolio": "CB",
    "riskStatus": "controlled",
    "crop": "ნუში",
    "area": 302.0,
    "loanAmount": 4000000,
    "region": "Kakheti",
    "municipality": "Telavi",
    "lat": 41.7333,
    "lng": 45.3333
  },
  {
    "id": "F036",
    "company": "შპს ხეხილეთი",
    "name": "ლევან",
    "surname": "ბერიძე",
    "nameEn": "Levan",
    "surnameEn": "Beridze",
    "portfolio": "CB",
    "riskStatus": "observation",
    "crop": "მოცვი",
    "area": 47.0,
    "loanAmount": 3500000,
    "region": "Guria",
    "municipality": "Chokhatauri",
    "lat": 41.9242,
    "lng": 42.0053
  },
  {
    "id": "F037",
    "company": "შპს ბაღნარი",
    "name": "მაკა",
    "surname": "ნედორაშვილი",
    "nameEn": "Maka",
    "surnameEn": "Nedorashvili",
    "portfolio": "CB",
    "riskStatus": "observation",
    "crop": "ვენახი",
    "area": 40.0,
    "loanAmount": 2000000,
    "region": "Racha-Lechkhumi",
    "municipality": "Ambrolauri",
    "lat": 42.5189,
    "lng": 43.1528
  },
  {
    "id": "F038",
    "company": "შპს გრევერა",
    "name": "დავით",
    "surname": "კვარაცხელია",
    "nameEn": "Davit",
    "surnameEn": "Kvaratskhelia",
    "portfolio": "CB",
    "riskStatus": "observation",
    "crop": "მოცვი",
    "area": 39.0,
    "loanAmount": 1800000,
    "region": "Samegrelo",
    "municipality": "Senaki",
    "lat": 42.2681,
    "lng": 42.0653
  },
  {
    "id": "F039",
    "company": "შპს ფოლირა",
    "name": "ნატა",
    "surname": "მაღალაშვილი",
    "nameEn": "Nata",
    "surnameEn": "Maghalashvili",
    "portfolio": "CB",
    "riskStatus": "observation",
    "crop": "ვენახი",
    "area": 53.0,
    "loanAmount": 4000000,
    "region": "Samtskhe-Javakheti",
    "municipality": "Aspindza",
    "lat": 41.5667,
    "lng": 43.2667
  },
  {
    "id": "F040",
    "company": "შპს კალიფორნია",
    "name": "ელიზაბეტ",
    "surname": "აბრამიშვილი",
    "nameEn": "Elizabet",
    "surnameEn": "Abramishvili",
    "portfolio": "CB",
    "riskStatus": "observation",
    "crop": "ნუში",
    "area": 194.0,
    "loanAmount": 2700000,
    "region": "Kvemo Kartli",
    "municipality": "Gardabani",
    "lat": 41.6333,
    "lng": 44.4667
  },
  {
    "id": "F041",
    "company": "შპს ხილარეა",
    "name": "მურთაზ",
    "surname": "ბერძენიშვილი",
    "nameEn": "Murtaz",
    "surnameEn": "Berdzenishvili",
    "portfolio": "CB",
    "riskStatus": "observation",
    "crop": "მოცვი",
    "area": 56.0,
    "loanAmount": 5000000,
    "region": "Samegrelo",
    "municipality": "Martvili",
    "lat": 42.1475,
    "lng": 41.6719
  },
  {
    "id": "F042",
    "company": "შპს ნაყოფარი",
    "name": "თამარ",
    "surname": "მესხი",
    "nameEn": "Tamar",
    "surnameEn": "Meskhi",
    "portfolio": "CB",
    "riskStatus": "observation",
    "crop": "ნუში",
    "area": 241.0,
    "loanAmount": 3700000,
    "region": "Shida Kartli",
    "municipality": "Kareli",
    "lat": 41.9833,
    "lng": 43.6
  },
  {
    "id": "F043",
    "company": "შპს ვაზიანი",
    "name": "ჯუმბერ",
    "surname": "სულაქველიძე",
    "nameEn": "Jumber",
    "surnameEn": "Sulakvelidze",
    "portfolio": "SME",
    "riskStatus": "observation",
    "crop": "ნუში",
    "area": 54.0,
    "loanAmount": 550000,
    "region": "Kvemo Kartli",
    "municipality": "Bolnisi",
    "lat": 41.4492,
    "lng": 44.5403
  },
  {
    "id": "F044",
    "company": "შპს მწვანე ფესვი",
    "name": "მედეა",
    "surname": "გულუა",
    "nameEn": "Medea",
    "surnameEn": "Gulua",
    "portfolio": "SME",
    "riskStatus": "observation",
    "crop": "მოცვი",
    "area": 15.0,
    "loanAmount": 500000,
    "region": "Guria",
    "municipality": "Ozurgeti",
    "lat": 42.0833,
    "lng": 42.0833
  },
  {
    "id": "F045",
    "company": "შპს ქართული ხე",
    "name": "ირაკლი",
    "surname": "კოჭლაშვილი",
    "nameEn": "Irakli",
    "surnameEn": "Kochlashvili",
    "portfolio": "SME",
    "riskStatus": "observation",
    "crop": "მოცვი",
    "area": 24.0,
    "loanAmount": 1350000,
    "region": "Samegrelo",
    "municipality": "Poti",
    "lat": 42.3167,
    "lng": 41.9
  },
  {
    "id": "F046",
    "company": "შპს სოფელი",
    "name": "ნინო",
    "surname": "ჭიჭინაძე",
    "nameEn": "Nino",
    "surnameEn": "Chichinadze",
    "portfolio": "SME",
    "riskStatus": "observation",
    "crop": "ვენახი",
    "area": 12.0,
    "loanAmount": 500000,
    "region": "Kakheti",
    "municipality": "Kvareli",
    "lat": 42.0333,
    "lng": 45.2
  },
  {
    "id": "F047",
    "company": "შპს ნაყოფიგო",
    "name": "ზაზა",
    "surname": "თავაძე",
    "nameEn": "Zaza",
    "surnameEn": "Tavadze",
    "portfolio": "SME",
    "riskStatus": "observation",
    "crop": "ვენახი",
    "area": 10.0,
    "loanAmount": 150000,
    "region": "Racha-Lechkhumi",
    "municipality": "Ambrolauri",
    "lat": 42.5833,
    "lng": 43.4333
  },
  {
    "id": "F048",
    "company": "შპს. ბაღიჯი",
    "name": "ნათია",
    "surname": "ქარდავა",
    "nameEn": "Natia",
    "surnameEn": "Kardava",
    "portfolio": "SME",
    "riskStatus": "observation",
    "crop": "ნუში",
    "area": 85.0,
    "loanAmount": 800000,
    "region": "Kakheti",
    "municipality": "Sagarejo",
    "lat": 41.6197,
    "lng": 45.9211
  },
  {
    "id": "F049",
    "company": "შპს. დარგე",
    "name": "გიორგი",
    "surname": "ვაშაძე",
    "nameEn": "Giorgi",
    "surnameEn": "Vashadze",
    "portfolio": "SME",
    "riskStatus": "observation",
    "crop": "ნუში",
    "area": 53.0,
    "loanAmount": 750000,
    "region": "Kvemo Kartli",
    "municipality": "Tetritskaro",
    "lat": 41.3333,
    "lng": 44.3333
  },
  {
    "id": "F050",
    "company": "შპს ბაღიჯი",
    "name": "ეკატერინე",
    "surname": "გულედანი",
    "nameEn": "Ekaterine",
    "surnameEn": "Guledani",
    "portfolio": "SME",
    "riskStatus": "observation",
    "crop": "მოცვი",
    "area": 18.0,
    "loanAmount": 700000,
    "region": "Samegrelo",
    "municipality": "Martvili",
    "lat": 42.6167,
    "lng": 42.0833
  },
  {
    "id": "F051",
    "company": "შპს გაზარდე",
    "name": "კახა",
    "surname": "ინაურიძე",
    "nameEn": "Kakha",
    "surnameEn": "Inauridze",
    "portfolio": "SME",
    "riskStatus": "high",
    "crop": "ვენახი",
    "area": 34.0,
    "loanAmount": 1150000,
    "region": "Kakheti",
    "municipality": "Gurjaani",
    "lat": 41.9183,
    "lng": 45.4736
  },
  {
    "id": "F052",
    "company": "შპს მთის ბაღი",
    "name": "ლამარა",
    "surname": "მეგრელიშვილი",
    "nameEn": "Lamara",
    "surnameEn": "Megrelishvili",
    "portfolio": "SME",
    "riskStatus": "high",
    "crop": "ნუში",
    "area": 25.0,
    "loanAmount": 250000,
    "region": "Shida Kartli",
    "municipality": "Gori",
    "lat": 41.9842,
    "lng": 44.1089
  },
  {
    "id": "F053",
    "company": "შპს ნატვრის ხე",
    "name": "შალვა",
    "surname": "სარდალიშვილი",
    "nameEn": "Shalva",
    "surnameEn": "Sardalishvili",
    "portfolio": "SME",
    "riskStatus": "high",
    "crop": "ვენახი",
    "area": 33.0,
    "loanAmount": 500000,
    "region": "Guria",
    "municipality": "Ozurgeti",
    "lat": 41.9833,
    "lng": 42.1667
  },
  {
    "id": "F054",
    "company": "შპს კენკრა",
    "name": "მანანა",
    "surname": "გოგიტიძე",
    "nameEn": "Manana",
    "surnameEn": "Gogitidze",
    "portfolio": "SME",
    "riskStatus": "high",
    "crop": "მოცვი",
    "area": 24.0,
    "loanAmount": 1350000,
    "region": "Samegrelo",
    "municipality": "Zugdidi",
    "lat": 42.4167,
    "lng": 42.3833
  },
  {
    "id": "F055",
    "company": "შპს ღვინო",
    "name": "ავთანდილ",
    "surname": "აბესაძე",
    "nameEn": "Avtandil",
    "surnameEn": "Abesadze",
    "portfolio": "SME",
    "riskStatus": "high",
    "crop": "ვენახი",
    "area": 40.0,
    "loanAmount": 1500000,
    "region": "Racha-Lechkhumi",
    "municipality": "Ambrolauri",
    "lat": 42.5189,
    "lng": 43.1528
  },
  {
    "id": "F056",
    "company": "შპს პერაგრო",
    "name": "მარიამ",
    "surname": "თორდია",
    "nameEn": "Mariam",
    "surnameEn": "Tordia",
    "portfolio": "SME",
    "riskStatus": "high",
    "crop": "მოცვი",
    "area": 22.0,
    "loanAmount": 1000000,
    "region": "Imereti",
    "municipality": "Tskaltubo",
    "lat": 42.1092,
    "lng": 43.0453
  },
  {
    "id": "F057",
    "company": "შპს იუმირა",
    "name": "ნოდარ",
    "surname": "კუკავა",
    "nameEn": "Nodar",
    "surnameEn": "Kukava",
    "portfolio": "CB",
    "riskStatus": "high",
    "crop": "ნუში",
    "area": 251.0,
    "loanAmount": 3500000,
    "region": "Kakheti",
    "municipality": "Telavi",
    "lat": 41.7453,
    "lng": 45.7989
  },
  {
    "id": "F058",
    "company": "შპს პომარი",
    "name": "თინათინ",
    "surname": "ზარდიაშვილი",
    "nameEn": "Tinatin",
    "surnameEn": "Zardiashvili",
    "portfolio": "CB",
    "riskStatus": "high",
    "crop": "ვენახი",
    "area": 55.0,
    "loanAmount": 3000000,
    "region": "Kakheti",
    "municipality": "Telavi",
    "lat": 41.9547,
    "lng": 45.8156
  },
  {
    "id": "F059",
    "company": "შპს არბორეა",
    "name": "ვახტანგ",
    "surname": "ნანავა",
    "nameEn": "Vakhtang",
    "surnameEn": "Nanava",
    "portfolio": "CB",
    "riskStatus": "high",
    "crop": "ნუში",
    "area": 193.0,
    "loanAmount": 2700000,
    "region": "Kvemo Kartli",
    "municipality": "Tetritskaro",
    "lat": 41.5833,
    "lng": 44.0833
  },
  {
    "id": "F060",
    "company": "შპს ოჯახი",
    "name": "რუსუდან",
    "surname": "აბულაძე",
    "nameEn": "Rusudan",
    "surnameEn": "Abuladze",
    "portfolio": "CB",
    "riskStatus": "high",
    "crop": "ნუში",
    "area": 313.0,
    "loanAmount": 4000000,
    "region": "Kakheti",
    "municipality": "Sagarejo",
    "lat": 41.7333,
    "lng": 45.3333
  }
]