[
  {
    "id": "F001",
    "company": "შპს გოლდენბლუ",
    "name": "გიორგი",
    "surname": "ქავთარაძე",
    "nameEn": "Giorgi",
    "surnameEn": "Kavtaradze",
    "portfolio": "SME",
    "riskStatus": "controlled",
    "crop": "ნუში",
    "area": 50,
    "loanAmount": 550000,
    "region": "Kakheti",
    "municipality": "Sighnaghi",
    "lat": 41.6696,
    "lng": 45.9516,
    "checkupStatus": "in_progress"
  },
  {
    "id": "F002",
    "company": "შპს  ბლუბერთი",
    "name": "მაია",
    "surname": "ბერიძე",
    "nameEn": "Maia",
    "surnameEn": "Beridze",
    "portfolio": "SME",
    "riskStatus": "controlled",
    "crop": "მოცვი",
    "area": 12,
    "loanAmount": 500000,
    "region": "Samegrelo",
    "municipality": "Martvili",
    "lat": 42.3841,
    "lng": 42.3412,
    "checkupStatus": "not_checked"
  },
  {
    "id": "F003",
    "company": "შპს კოსმიქი",
    "name": "დავით",
    "surname": "შავაძე",
    "nameEn": "Davit",
    "surnameEn": "Shavadze",
    "portfolio": "SME",
    "riskStatus": "controlled",
    "crop": "ვენახი",
    "area": 30,
    "loanAmount": 1350000,
    "region": "Kakheti",
    "municipality": "Gurjaani",
    "lat": 41.9583,
    "lng": 45.4398,
    "checkupStatus": "not_checked"
  },
  {
    "id": "F004",
    "company": "შპს ვინო2",
    "name": "ნანა",
    "surname": "გოგუაძე",
    "nameEn": "Nana",
    "surnameEn": "Goguadze",
    "portfolio": "SME",
    "riskStatus": "controlled",
    "crop": "ვენახი",
    "area": 18,
    "loanAmount": 500000,
    "region": "Racha-Lechkhumi",
    "municipality": "Ambrolauri",
    "lat": 42.5138,
    "lng": 43.1042,
    "checkupStatus": "checked"
  },
  {
    "id": "F005",
    "company": "შპს ალმონი",
    "name": "მერაბ",
    "surname": "ხვედელიძე",
    "nameEn": "Merab",
    "surnameEn": "Khvedelidze",
    "portfolio": "SME",
    "riskStatus": "controlled",
    "crop": "ნუში",
    "area": 20,
    "loanAmount": 150000,
    "region": "Kvemo Kartli",
    "municipality": "Marneuli",
    "lat": 41.4452,
    "lng": 44.771,
    "checkupStatus": "not_checked"
  },
  {
    "id": "F006",
    "company": "შპს პერენნია",
    "name": "ნიკოლოზ",
    "surname": "ბაქრაძე",
    "nameEn": "Nikoloz",
    "surnameEn": "Bakradze",
    "portfolio": "SME",
    "riskStatus": "controlled",
    "crop": "ვენახი",
    "area": 20,
    "loanAmount": 800000,
    "region": "Kakheti",
    "municipality": "Telavi",
    "lat": 41.7176,
    "lng": 45.7567,
    "checkupStatus": "in_progress"
  },
  {
    "id": "F007",
    "company": "შპს ლიფერა",
    "name": "თემურ",
    "surname": "ბერია",
    "nameEn": "Temur",
    "surnameEn": "Beria",
    "portfolio": "SME",
    "riskStatus": "controlled",
    "crop": "ნუში",
    "area": 60,
    "loanAmount": 750000,
    "region": "Shida Kartli",
    "municipality": "Gori",
    "lat": 41.9502,
    "lng": 44.1267,
    "checkupStatus": "not_checked"
  },
  {
    "id": "F008",
    "company": "შპს ხილკო",
    "name": "ეკა",
    "surname": "კურტანიძე",
    "nameEn": "Eka",
    "surnameEn": "Kurtanidze",
    "portfolio": "SME",
    "riskStatus": "controlled",
    "crop": "მოცვი",
    "area": 18,
    "loanAmount": 700000,
    "region": "Samegrelo",
    "municipality": "Zugdidi",
    "lat": 42.5093,
    "lng": 41.846,
    "checkupStatus": "checked"
  },
  {
    "id": "F009",
    "company": "შპს თ&ნ",
    "name": "ლევან",
    "surname": "ქარჩილაძე",
    "nameEn": "Levan",
    "surnameEn": "Karchiladze",
    "portfolio": "SME",
    "riskStatus": "controlled",
    "crop": "მოცვი",
    "area": 26,
    "loanAmount": 1150000,
    "region": "Guria",
    "municipality": "Ozurgeti",
    "lat": 41.9553,
    "lng": 42.0372,
    "checkupStatus": "not_checked"
  },
  {
    "id": "F010",
    "company": "შპს ტერალაიფი",
    "name": "მზია",
    "surname": "ფოფხაძე",
    "nameEn": "Mzia",
    "surnameEn": "Popkhadze",
    "portfolio": "SME",
    "riskStatus": "controlled",
    "crop": "ვენახი",
    "area": 12,
    "loanAmount": 250000,
    "region": "Samtskhe-Javakheti",
    "municipality": "Akhaltsikhe",
    "lat": 41.5952,
    "lng": 43.031,
    "checkupStatus": "in_progress"
  },
  {
    "id": "F011",
    "company": "შპს რუთსი",
    "name": "ანზორ",
    "surname": "მახარაძე",
    "nameEn": "Anzor",
    "surnameEn": "Makharadze",
    "portfolio": "SME",
    "riskStatus": "controlled",
    "crop": "მოცვი",
    "area": 13,
    "loanAmount": 500000,
    "region": "Samegrelo",
    "municipality": "Senaki",
    "lat": 42.3013,
    "lng": 42.039,
    "checkupStatus": "checked"
  },
  {
    "id": "F012",
    "company": "შპს ვიტისორი",
    "name": "რუსუდან",
    "surname": "ალექსიძე",
    "nameEn": "Rusudan",
    "surnameEn": "Aleksidze",
    "portfolio": "SME",
    "riskStatus": "controlled",
    "crop": "მოცვი",
    "area": 28,
    "loanAmount": 1350000,
    "region": "Guria",
    "municipality": "Ozurgeti",
    "lat": 42.0754,
    "lng": 42.058,
    "checkupStatus": "checked"
  },
  {
    "id": "F013",
    "company": "შპს ქართული",
    "name": "ზურაბ",
    "surname": "ჭელიძე",
    "nameEn": "Zurab",
    "surnameEn": "Chelidze",
    "portfolio": "SME",
    "riskStatus": "controlled",
    "crop": "ნუში",
    "area": 150,
    "loanAmount": 1500000,
    "region": "Kakheti",
    "municipality": "Gurjaani",
    "lat": 41.9214,
    "lng": 45.7979,
    "checkupStatus": "in_progress"
  },
  {
    "id": "F014",
    "company": "შპს ნატრიქსი",
    "name": "გოჩა",
    "surname": "მჟავანაძე",
    "nameEn": "Gocha",
    "surnameEn": "Mzhavanadze",
    "portfolio": "SME",
    "riskStatus": "controlled",
    "crop": "ნუში",
    "area": 120,
    "loanAmount": 1000000,
    "region": "Kakheti",
    "municipality": "Sighnaghi",
    "lat": 41.7371,
    "lng": 45.3226,
    "checkupStatus": "not_checked"
  },
  {
    "id": "F015",
    "company": "შპს გიკო",
    "name": "თიკა",
    "surname": "ხატიაშვილი",
    "nameEn": "Tika",
    "surnameEn": "Khatiashvili",
    "portfolio": "SME",
    "riskStatus": "controlled",
    "crop": "მოცვი",
    "area": 30,
    "loanAmount": 800000,
    "region": "Guria",
    "municipality": "Lanchkhuti",
    "lat": 41.9634,
    "lng": 42.1563,
    "checkupStatus": "in_progress"
  },
  {
    "id": "F016",
    "company": "შპს ორჩადია",
    "name": "არჩილ",
    "surname": "გობაძე",
    "nameEn": "Archil",
    "surnameEn": "Gobadze",
    "portfolio": "SME",
    "riskStatus": "controlled",
    "crop": "მოცვი",
    "area": 31,
    "loanAmount": 750000,
    "region": "Samegrelo",
    "municipality": "Poti",
    "lat": 42.1567,
    "lng": 41.6573,
    "checkupStatus": "in_progress"
  },
  {
    "id": "F017",
    "company": "შპს ორჩადია-2",
    "name": "ლელა",
    "surname": "ბერძენიშვილი",
    "nameEn": "Lela",
    "surnameEn": "Berdzenishvili",
    "portfolio": "SME",
    "riskStatus": "controlled",
    "crop": "ნუში",
    "area": 62,
    "loanAmount": 700000,
    "region": "Kakheti",
    "municipality": "Telavi",
    "lat": 42.0432,
    "lng": 45.2272,
    "checkupStatus": "in_progress"
  },
  {
    "id": "F018",
    "company": "შპს გზა",
    "name": "ვაჟა",
    "surname": "ბათიაშვილი",
    "nameEn": "Vazha",
    "surnameEn": "Batiashvili",
    "portfolio": "SME",
    "riskStatus": "controlled",
    "crop": "ვენახი",
    "area": 30,
    "loanAmount": 1000000,
    "region": "Racha-Lechkhumi",
    "municipality": "Oni",
    "lat": 42.616,
    "lng": 43.4352,
    "checkupStatus": "not_checked"
  },
  {
    "id": "F019",
    "company": "შპს ვინიფერა",
    "name": "ნოდარ",
    "surname": "ჩხეიძე",
    "nameEn": "Nodar",
    "surnameEn": "Chkheidze",
    "portfolio": "SME",
    "riskStatus": "controlled",
    "crop": "ვენახი",
    "area": 13,
    "loanAmount": 400000,
    "region": "Guria",
    "municipality": "Chokhatauri",
    "lat": 41.9738,
    "lng": 41.9683,
    "checkupStatus": "in_progress"
  },
  {
    "id": "F020",
    "company": "შპს ნაყოფთა ბაღი",
    "name": "თინათინ",
    "surname": "სხილაძე",
    "nameEn": "Tinatin",
    "surnameEn": "Skhiladze",
    "portfolio": "SME",
    "riskStatus": "controlled",
    "crop": "ნუში",
    "area": 51,
    "loanAmount": 550000,
    "region": "Kvemo Kartli",
    "municipality": "Tetritskaro",
    "lat": 41.4414,
    "lng": 45.1014,
    "checkupStatus": "not_checked"
  },
  {
    "id": "F021",
    "company": "შპს ფესვები",
    "name": "ილია",
    "surname": "მამალაძე",
    "nameEn": "Ilia",
    "surnameEn": "Mamaladze",
    "portfolio": "SME",
    "riskStatus": "controlled",
    "crop": "მოცვი",
    "area": 34,
    "loanAmount": 1600000,
    "region": "Samegrelo",
    "municipality": "Zugdidi",
    "lat": 42.3498,
    "lng": 41.9482,
    "checkupStatus": "checked"
  },
  {
    "id": "F022",
    "company": "შპს ალმონიანი",
    "name": "ელენე",
    "surname": "ჩიქობავა",
    "nameEn": "Elene",
    "surnameEn": "Chikobava",
    "portfolio": "CB",
    "riskStatus": "controlled",
    "crop": "მოცვი",
    "area": 42,
    "loanAmount": 2500000,
    "region": "Imereti",
    "municipality": "Tskaltubo",
    "lat": 42.224,
    "lng": 42.6702,
    "checkupStatus": "in_progress"
  },
  {
    "id": "F023",
    "company": "შპს დროის ბაღი",
    "name": "დავით",
    "surname": "ხურციძე",
    "nameEn": "Davit",
    "surnameEn": "Khurtsidze",
    "portfolio": "CB",
    "riskStatus": "controlled",
    "crop": "ვენახი",
    "area": 52,
    "loanAmount": 3000000,
    "region": "Kakheti",
    "municipality": "Kvareli",
    "lat": 41.4214,
    "lng": 46.1124,
    "checkupStatus": "checked"
  },
  {
    "id": "F024",
    "company": "შპს სილვერი",
    "name": "ნათია",
    "surname": "გობრონიძე",
    "nameEn": "Natia",
    "surnameEn": "Gobronidze",
    "portfolio": "CB",
    "riskStatus": "controlled",
    "crop": "ნუში",
    "area": 200,
    "loanAmount": 2500000,
    "region": "Shida Kartli",
    "municipality": "Kareli",
    "lat": 42.069,
    "lng": 43.848,
    "checkupStatus": "not_checked"
  },
  {
    "id": "F025",
    "company": "შპს ქართული ვაზი",
    "name": "ზვიადი",
    "surname": "კიკნაძე",
    "nameEn": "ზვიადი",
    "surnameEn": "Kiknadze",
    "portfolio": "CB",
    "riskStatus": "controlled",
    "crop": "მოცვი",
    "area": 55,
    "loanAmount": 4000000,
    "region": "Samegrelo",
    "municipality": "Senaki",
    "lat": 42.5781,
    "lng": 42.0615,
    "checkupStatus": "not_checked"
  },
  {
    "id": "F026",
    "company": "შპს საგვარეულო",
    "name": "ელი",
    "surname": "ადამია",
    "nameEn": "Eli",
    "surnameEn": "Adamia",
    "portfolio": "CB",
    "riskStatus": "controlled",
    "crop": "მოცვი",
    "area": 53,
    "loanAmount": 3500000,
    "region": "Guria",
    "municipality": "Ozurgeti",
    "lat": 42.0397,
    "lng": 42.0781,
    "checkupStatus": "not_checked"
  },
  {
    "id": "F027",
    "company": "შპს მეგობრობა",
    "name": "მარიამ",
    "surname": "ცუცქირიძე",
    "nameEn": "Mariam",
    "surnameEn": "Tsutskir idze",
    "portfolio": "CB",
    "riskStatus": "controlled",
    "crop": "ვენახი",
    "area": 44,
    "loanAmount": 2000000,
    "region": "Kakheti",
    "municipality": "Telavi",
    "lat": 41.8533,
    "lng": 46.3015,
    "checkupStatus": "not_checked"
  },
  {
    "id": "F028",
    "company": "შპს გემრიელი ფესვები",
    "name": "გიორგი",
    "surname": "მიქელაძე",
    "nameEn": "Giorgi",
    "surnameEn": "Mikeladze",
    "portfolio": "CB",
    "riskStatus": "controlled",
    "crop": "ნუში",
    "area": 181,
    "loanAmount": 1800000,
    "region": "Kakheti",
    "municipality": "Sagarejo",
    "lat": 41.6399,
    "lng": 45.8734,
    "checkupStatus": "in_progress"
  },
  {
    "id": "F029",
    "company": "შპს ჯორჯიკა",
    "name": "სალომე",
    "surname": "ტაბიძე",
    "nameEn": "Salome",
    "surnameEn": "Tabidze",
    "portfolio": "CB",
    "riskStatus": "controlled",
    "crop": "მოცვი",
    "area": 55,
    "loanAmount": 4000000,
    "region": "Imereti",
    "municipality": "Tskaltubo",
    "lat": 42.377,
    "lng": 42.6006,
    "checkupStatus": "in_progress"
  },
  {
    "id": "F030",
    "company": "შპს მრავალწლიანობა",
    "name": "შოთა",
    "surname": "ბერიკაშვილი",
    "nameEn": "Shota",
    "surnameEn": "Berikashvili",
    "portfolio": "CB",
    "riskStatus": "controlled",
    "crop": "მოცვი",
    "area": 48,
    "loanAmount": 2700000,
    "region": "Samegrelo",
    "municipality": "Tsalenjikha",
    "lat": 42.3828,
    "lng": 42.3656,
    "checkupStatus": "not_checked"
  },
  {
    "id": "F031",
    "company": "შპს. ბერის გარდენი",
    "name": "ლია",
    "surname": "მამიკონიშვილი",
    "nameEn": "Lia",
    "surnameEn": "Mamikonishvili",
    "portfolio": "CB",
    "riskStatus": "controlled",
    "crop": "ნუში",
    "area": 255,
    "loanAmount": 3600000,
    "region": "Kakheti",
    "municipality": "Gurjaani",
    "lat": 41.8801,
    "lng": 45.4542,
    "checkupStatus": "checked"
  },
  {
    "id": "F032",
    "company": "შპს. დროის ბაღი",
    "name": "ირაკლი",
    "surname": "ზედელაშვილი",
    "nameEn": "Irakli",
    "surnameEn": "Zedelashvili",
    "portfolio": "CB",
    "riskStatus": "controlled",
    "crop": "ნუში",
    "area": 186,
    "loanAmount": 2500000,
    "region": "Shida Kartli",
    "municipality": "Gori",
    "lat": 41.9522,
    "lng": 44.4225,
    "checkupStatus": "not_checked"
  },
  {
    "id": "F033",
    "company": "შპს ფრუტია",
    "name": "ელენე",
    "surname": "ბოლქვაძე",
    "nameEn": "Elene",
    "surnameEn": "Bolkvadze",
    "portfolio": "CB",
    "riskStatus": "controlled",
    "crop": "მოცვი",
    "area": 45,
    "loanAmount": 3000000,
    "region": "Guria",
    "municipality": "Lanchkhuti",
    "lat": 41.9705,
    "lng": 42.1298,
    "checkupStatus": "in_progress"
  },
  {
    "id": "F034",
    "company": "შპს ბერინესტი",
    "name": "კახა",
    "surname": "თევზაძე",
    "nameEn": "Kakha",
    "surnameEn": "Tevzadze",
    "portfolio": "CB",
    "riskStatus": "controlled",
    "crop": "მოცვი",
    "area": 40,
    "loanAmount": 1500000,
    "region": "Samegrelo",
    "municipality": "Zugdidi",
    "lat": 42.499,
    "lng": 41.8295,
    "checkupStatus": "in_progress"
  },
  {
    "id": "F035",
    "company": "შპს. სვიანი",
    "name": "ნინო",
    "surname": "გიგუნაშვილი",
    "nameEn": "Nino",
    "surnameEn": "Gigunashvili",
    "portfolio": "CB",
    "riskStatus": "controlled",
    "crop": "ნუში",
    "area": 302,
    "loanAmount": 4000000,
    "region": "Kakheti",
    "municipality": "Telavi",
    "lat": 41.7482,
    "lng": 45.7663,
    "checkupStatus": "not_checked"
  },
  {
    "id": "F036",
    "company": "შპს ხეხილეთი",
    "name": "ლევან",
    "surname": "ბერიძე",
    "nameEn": "Levan",
    "surnameEn": "Beridze",
    "portfolio": "CB",
    "riskStatus": "observation",
    "crop": "მოცვი",
    "area": 47,
    "loanAmount": 3500000,
    "region": "Guria",
    "municipality": "Chokhatauri",
    "lat": 41.9116,
    "lng": 41.9838,
    "checkupStatus": "in_progress"
  },
  {
    "id": "F037",
    "company": "შპს ბაღნარი",
    "name": "მაკა",
    "surname": "ნედორაშვილი",
    "nameEn": "Maka",
    "surnameEn": "Nedorashvili",
    "portfolio": "CB",
    "riskStatus": "observation",
    "crop": "ვენახი",
    "area": 40,
    "loanAmount": 2000000,
    "region": "Racha-Lechkhumi",
    "municipality": "Ambrolauri",
    "lat": 42.4733,
    "lng": 43.126,
    "checkupStatus": "not_checked"
  },
  {
    "id": "F038",
    "company": "შპს გრევერა",
    "name": "დავით",
    "surname": "კვარაცხელია",
    "nameEn": "Davit",
    "surnameEn": "Kvaratskhelia",
    "portfolio": "CB",
    "riskStatus": "observation",
    "crop": "მოცვი",
    "area": 39,
    "loanAmount": 1800000,
    "region": "Samegrelo",
    "municipality": "Senaki",
    "lat": 42.2516,
    "lng": 42.0694,
    "checkupStatus": "in_progress"
  },
  {
    "id": "F039",
    "company": "შპს ფოლირა",
    "name": "ნატა",
    "surname": "მაღალაშვილი",
    "nameEn": "Nata",
    "surnameEn": "Maghalashvili",
    "portfolio": "CB",
    "riskStatus": "observation",
    "crop": "ვენახი",
    "area": 53,
    "loanAmount": 4000000,
    "region": "Samtskhe-Javakheti",
    "municipality": "Aspindza",
    "lat": 41.6093,
    "lng": 43.2926,
    "checkupStatus": "checked"
  },
  {
    "id": "F040",
    "company": "შპს კალიფორნია",
    "name": "ელიზაბეტ",
    "surname": "აბრამიშვილი",
    "nameEn": "Elizabet",
    "surnameEn": "Abramishvili",
    "portfolio": "CB",
    "riskStatus": "observation",
    "crop": "ნუში",
    "area": 194,
    "loanAmount": 2700000,
    "region": "Kvemo Kartli",
    "municipality": "Gardabani",
    "lat": 41.6361,
    "lng": 44.496,
    "checkupStatus": "in_progress"
  },
  {
    "id": "F041",
    "company": "შპს ხილარეა",
    "name": "მურთაზ",
    "surname": "ბერძენიშვილი",
    "nameEn": "Murtaz",
    "surnameEn": "Berdzenishvili",
    "portfolio": "CB",
    "riskStatus": "observation",
    "crop": "მოცვი",
    "area": 56,
    "loanAmount": 5000000,
    "region": "Samegrelo",
    "municipality": "Martvili",
    "lat": 42.1456,
    "lng": 41.7092,
    "checkupStatus": "not_checked"
  },
  {
    "id": "F042",
    "company": "შპს ნაყოფარი",
    "name": "თამარ",
    "surname": "მესხი",
    "nameEn": "Tamar",
    "surnameEn": "Meskhi",
    "portfolio": "CB",
    "riskStatus": "observation",
    "crop": "ნუში",
    "area": 241,
    "loanAmount": 3700000,
    "region": "Shida Kartli",
    "municipality": "Kareli",
    "lat": 41.9854,
    "lng": 43.6224,
    "checkupStatus": "not_checked"
  },
  {
    "id": "F043",
    "company": "შპს ვაზიანი",
    "name": "ჯუმბერ",
    "surname": "სულაქველიძე",
    "nameEn": "Jumber",
    "surnameEn": "Sulakvelidze",
    "portfolio": "SME",
    "riskStatus": "observation",
    "crop": "ნუში",
    "area": 54,
    "loanAmount": 550000,
    "region": "Kvemo Kartli",
    "municipality": "Bolnisi",
    "lat": 41.4061,
    "lng": 44.5172,
    "checkupStatus": "checked"
  },
  {
    "id": "F044",
    "company": "შპს მწვანე ფესვი",
    "name": "მედეა",
    "surname": "გულუა",
    "nameEn": "Medea",
    "surnameEn": "Gulua",
    "portfolio": "SME",
    "riskStatus": "observation",
    "crop": "მოცვი",
    "area": 15,
    "loanAmount": 500000,
    "region": "Guria",
    "municipality": "Ozurgeti",
    "lat": 42.1265,
    "lng": 42.0954,
    "checkupStatus": "not_checked"
  },
  {
    "id": "F045",
    "company": "შპს ქართული ხე",
    "name": "ირაკლი",
    "surname": "კოჭლაშვილი",
    "nameEn": "Irakli",
    "surnameEn": "Kochlashvili",
    "portfolio": "SME",
    "riskStatus": "observation",
    "crop": "მოცვი",
    "area": 24,
    "loanAmount": 1350000,
    "region": "Samegrelo",
    "municipality": "Poti",
    "lat": 42.2703,
    "lng": 41.9498,
    "checkupStatus": "checked"
  },
  {
    "id": "F046",
    "company": "შპს სოფელი",
    "name": "ნინო",
    "surname": "ჭიჭინაძე",
    "nameEn": "Nino",
    "surnameEn": "Chichinadze",
    "portfolio": "SME",
    "riskStatus": "observation",
    "crop": "ვენახი",
    "area": 12,
    "loanAmount": 500000,
    "region": "Kakheti",
    "municipality": "Kvareli",
    "lat": 41.9461,
    "lng": 45.8498,
    "checkupStatus": "checked"
  },
  {
    "id": "F047",
    "company": "შპს ნაყოფიგო",
    "name": "ზაზა",
    "surname": "თავაძე",
    "nameEn": "Zaza",
    "surnameEn": "Tavadze",
    "portfolio": "SME",
    "riskStatus": "observation",
    "crop": "ვენახი",
    "area": 10,
    "loanAmount": 150000,
    "region": "Racha-Lechkhumi",
    "municipality": "Ambrolauri",
    "lat": 42.5466,
    "lng": 43.4389,
    "checkupStatus": "checked"
  },
  {
    "id": "F048",
    "company": "შპს. ბაღიჯი",
    "name": "ნათია",
    "surname": "ქარდავა",
    "nameEn": "Natia",
    "surnameEn": "Kardava",
    "portfolio": "SME",
    "riskStatus": "observation",
    "crop": "ნუში",
    "area": 85,
    "loanAmount": 800000,
    "region": "Kakheti",
    "municipality": "Sagarejo",
    "lat": 41.7084,
    "lng": 45.3684,
    "checkupStatus": "checked"
  },
  {
    "id": "F049",
    "company": "შპს. დარგე",
    "name": "გიორგი",
    "surname": "ვაშაძე",
    "nameEn": "Giorgi",
    "surnameEn": "Vashadze",
    "portfolio": "SME",
    "riskStatus": "observation",
    "crop": "ნუში",
    "area": 53,
    "loanAmount": 750000,
    "region": "Kvemo Kartli",
    "municipality": "Tetritskaro",
    "lat": 41.3288,
    "lng": 44.3079,
    "checkupStatus": "in_progress"
  },
  {
    "id": "F050",
    "company": "შპს ბაღიჯი",
    "name": "ეკატერინე",
    "surname": "გულედანი",
    "nameEn": "Ekaterine",
    "surnameEn": "Guledani",
    "portfolio": "SME",
    "riskStatus": "observation",
    "crop": "მოცვი",
    "area": 18,
    "loanAmount": 700000,
    "region": "Samegrelo",
    "municipality": "Martvili",
    "lat": 42.5765,
    "lng": 42.1007,
    "checkupStatus": "not_checked"
  },
  {
    "id": "F051",
    "company": "შპს გაზარდე",
    "name": "კახა",
    "surname": "ინაურიძე",
    "nameEn": "Kakha",
    "surnameEn": "Inauridze",
    "portfolio": "SME",
    "riskStatus": "high",
    "crop": "ვენახი",
    "area": 34,
    "loanAmount": 1150000,
    "region": "Kakheti",
    "municipality": "Gurjaani",
    "lat": 42.0815,
    "lng": 45.185,
    "checkupStatus": "checked"
  },
  {
    "id": "F052",
    "company": "შპს მთის ბაღი",
    "name": "ლამარა",
    "surname": "მეგრელიშვილი",
    "nameEn": "Lamara",
    "surnameEn": "Megrelishvili",
    "portfolio": "SME",
    "riskStatus": "high",
    "crop": "ნუში",
    "area": 25,
    "loanAmount": 250000,
    "region": "Shida Kartli",
    "municipality": "Gori",
    "lat": 41.9743,
    "lng": 44.1045,
    "checkupStatus": "checked"
  },
  {
    "id": "F053",
    "company": "შპს ნატვრის ხე",
    "name": "შალვა",
    "surname": "სარდალიშვილი",
    "nameEn": "Shalva",
    "surnameEn": "Sardalishvili",
    "portfolio": "SME",
    "riskStatus": "high",
    "crop": "ვენახი",
    "area": 33,
    "loanAmount": 500000,
    "region": "Guria",
    "municipality": "Ozurgeti",
    "lat": 41.9879,
    "lng": 42.158,
    "checkupStatus": "not_checked"
  },
  {
    "id": "F054",
    "company": "შპს კენკრა",
    "name": "მანანა",
    "surname": "გოგიტიძე",
    "nameEn": "Manana",
    "surnameEn": "Gogitidze",
    "portfolio": "SME",
    "riskStatus": "high",
    "crop": "მოცვი",
    "area": 24,
    "loanAmount": 1350000,
    "region": "Samegrelo",
    "municipality": "Zugdidi",
    "lat": 42.4653,
    "lng": 42.4228,
    "checkupStatus": "in_progress"
  },
  {
    "id": "F055",
    "company": "შპს ღვინო",
    "name": "ავთანდილ",
    "surname": "აბესაძე",
    "nameEn": "Avtandil",
    "surnameEn": "Abesadze",
    "portfolio": "SME",
    "riskStatus": "high",
    "crop": "ვენახი",
    "area": 40,
    "loanAmount": 1500000,
    "region": "Racha-Lechkhumi",
    "municipality": "Ambrolauri",
    "lat": 42.5665,
    "lng": 43.197,
    "checkupStatus": "in_progress"
  },
  {
    "id": "F056",
    "company": "შპს პერაგრო",
    "name": "მარიამ",
    "surname": "თორდია",
    "nameEn": "Mariam",
    "surnameEn": "Tordia",
    "portfolio": "SME",
    "riskStatus": "high",
    "crop": "მოცვი",
    "area": 22,
    "loanAmount": 1000000,
    "region": "Imereti",
    "municipality": "Tskaltubo",
    "lat": 42.0734,
    "lng": 43.0285,
    "checkupStatus": "checked"
  },
  {
    "id": "F057",
    "company": "შპს იუმირა",
    "name": "ნოდარ",
    "surname": "კუკავა",
    "nameEn": "Nodar",
    "surnameEn": "Kukava",
    "portfolio": "CB",
    "riskStatus": "high",
    "crop": "ნუში",
    "area": 251,
    "loanAmount": 3500000,
    "region": "Kakheti",
    "municipality": "Telavi",
    "lat": 41.4524,
    "lng": 46.0711,
    "checkupStatus": "not_checked"
  },
  {
    "id": "F058",
    "company": "შპს პომარი",
    "name": "თინათინ",
    "surname": "ზარდიაშვილი",
    "nameEn": "Tinatin",
    "surnameEn": "Zardiashvili",
    "portfolio": "CB",
    "riskStatus": "high",
    "crop": "ვენახი",
    "area": 55,
    "loanAmount": 3000000,
    "region": "Kakheti",
    "municipality": "Telavi",
    "lat": 41.8132,
    "lng": 46.3323,
    "checkupStatus": "checked"
  },
  {
    "id": "F059",
    "company": "შპს არბორეა",
    "name": "ვახტანგ",
    "surname": "ნანავა",
    "nameEn": "Vakhtang",
    "surnameEn": "Nanava",
    "portfolio": "CB",
    "riskStatus": "high",
    "crop": "ნუში",
    "area": 193,
    "loanAmount": 2700000,
    "region": "Kvemo Kartli",
    "municipality": "Tetritskaro",
    "lat": 41.5435,
    "lng": 44.0707,
    "checkupStatus": "in_progress"
  },
  {
    "id": "F060",
    "company": "შპს ოჯახი",
    "name": "რუსუდან",
    "surname": "აბულაძე",
    "nameEn": "Rusudan",
    "surnameEn": "Abuladze",
    "portfolio": "CB",
    "riskStatus": "high",
    "crop": "ნუში",
    "area": 313,
    "loanAmount": 4000000,
    "region": "Kakheti",
    "municipality": "Sagarejo",
    "lat": 41.6091,
    "lng": 45.9229,
    "checkupStatus": "not_checked"
  }
]